<?xml version="1.0" encoding="utf-8"?>
<ArrayOfVolunteer>
  <Volunteer>
    <Id>356849909</Id>
    <FullName>Yosef Cohen</FullName>
    <PhoneNumber>0517444619</PhoneNumber>
    <Email>volunteer1@gmail.com</Email>
    <TypeDistance>AerialDistance</TypeDistance>
    <Position>Manager</Position>
    <Active>true</Active>
    <Password>9c)$86DoTo%i</Password>
    <Location>Rothschild Boulevard, Tel Aviv, Israel</Location>
    <Latitude>32.0853</Latitude>
    <Longitude>34.7818</Longitude>
    <MaxDistance>7</MaxDistance>
  </Volunteer>
  <Volunteer>
    <Id>296625894</Id>
    <FullName>Shmuel Levi</FullName>
    <PhoneNumber>0567286048</PhoneNumber>
    <Email>volunteer2@gmail.com</Email>
    <TypeDistance>AerialDistance</TypeDistance>
    <Position>Volunteer</Position>
    <Active>true</Active>
    <Password>4KX#*MVmwA@Z</Password>
    <Location>Jaffa Gate, Jerusalem, Israel</Location>
    <Latitude>31.7683</Latitude>
    <Longitude>35.2137</Longitude>
    <MaxDistance>12</MaxDistance>
  </Volunteer>
  <Volunteer>
    <Id>285808835</Id>
    <FullName>Yaakov Goldstein</FullName>
    <PhoneNumber>0583422314</PhoneNumber>
    <Email>volunteer3@gmail.com</Email>
    <TypeDistance>AerialDistance</TypeDistance>
    <Position>Volunteer</Position>
    <Active>true</Active>
    <Password>2P6@$xaHg9)U</Password>
    <Location>Baha'i Gardens, Haifa, Israel</Location>
    <Latitude>32.814</Latitude>
    <Longitude>34.9896</Longitude>
    <MaxDistance>14</MaxDistance>
  </Volunteer>
  <Volunteer>
    <Id>252932607</Id>
    <FullName>Moshe Friedman</FullName>
    <PhoneNumber>0544372364</PhoneNumber>
    <Email>volunteer4@gmail.com</Email>
    <TypeDistance>AerialDistance</TypeDistance>
    <Position>Volunteer</Position>
    <Active>true</Active>
    <Password>ZPVq63r3%)sa</Password>
    <Location>Dead Sea, Israel</Location>
    <Latitude>31.559</Latitude>
    <Longitude>35.4732</Longitude>
    <MaxDistance>11</MaxDistance>
  </Volunteer>
  <Volunteer>
    <Id>398501007</Id>
    <FullName>Avraham Stein</FullName>
    <PhoneNumber>0574713118</PhoneNumber>
    <Email>volunteer5@gmail.com</Email>
    <TypeDistance>AerialDistance</TypeDistance>
    <Position>Volunteer</Position>
    <Active>true</Active>
    <Password>5vMpxusiEbub</Password>
    <Location>Masada National Park, Israel</Location>
    <Latitude>31.3156</Latitude>
    <Longitude>35.3533</Longitude>
    <MaxDistance>9</MaxDistance>
  </Volunteer>
  <Volunteer>
    <Id>322496451</Id>
    <FullName>Daniel Green</FullName>
    <PhoneNumber>0592600050</PhoneNumber>
    <Email>volunteer6@gmail.com</Email>
    <TypeDistance>AerialDistance</TypeDistance>
    <Position>Volunteer</Position>
    <Active>true</Active>
    <Password>0qzolWkV3x$F</Password>
    <Location>Eilat Coral Beach, Eilat, Israel</Location>
    <Latitude>29.5015</Latitude>
    <Longitude>34.9166</Longitude>
    <MaxDistance>17</MaxDistance>
  </Volunteer>
  <Volunteer>
    <Id>249844235</Id>
    <FullName>David Weiss</FullName>
    <PhoneNumber>0565501610</PhoneNumber>
    <Email>volunteer7@gmail.com</Email>
    <TypeDistance>AerialDistance</TypeDistance>
    <Position>Volunteer</Position>
    <Active>true</Active>
    <Password>l)6PPLdGCeab</Password>
    <Location>Yad Vashem, Jerusalem, Israel</Location>
    <Latitude>31.7744</Latitude>
    <Longitude>35.1758</Longitude>
    <MaxDistance>14</MaxDistance>
  </Volunteer>
  <Volunteer>
    <Id>358303387</Id>
    <FullName>Yonatan Rubin</FullName>
    <PhoneNumber>0516208206</PhoneNumber>
    <Email>volunteer8@gmail.com</Email>
    <TypeDistance>AerialDistance</TypeDistance>
    <Position>Volunteer</Position>
    <Active>true</Active>
    <Password>8KD7^q%c)lqO</Password>
    <Location>Carmel Market, Tel Aviv, Israel</Location>
    <Latitude>32.0681</Latitude>
    <Longitude>34.7705</Longitude>
    <MaxDistance>8</MaxDistance>
  </Volunteer>
  <Volunteer>
    <Id>246395688</Id>
    <FullName>Hanan Levy</FullName>
    <PhoneNumber>0523850812</PhoneNumber>
    <Email>volunteer9@gmail.com</Email>
    <TypeDistance>AerialDistance</TypeDistance>
    <Position>Volunteer</Position>
    <Active>true</Active>
    <Password>4*#GRd!yUVYa</Password>
    <Location>Sea of Galilee, Tiberias, Israel</Location>
    <Latitude>32.7959</Latitude>
    <Longitude>35.5312</Longitude>
    <MaxDistance>13</MaxDistance>
  </Volunteer>
  <Volunteer>
    <Id>271127442</Id>
    <FullName>Eli Karp</FullName>
    <PhoneNumber>0585568445</PhoneNumber>
    <Email>volunteer10@gmail.com</Email>
    <TypeDistance>AerialDistance</TypeDistance>
    <Position>Volunteer</Position>
    <Active>true</Active>
    <Password>tKXJLukmY%s@</Password>
    <Location>Ramon Crater, Mitzpe Ramon, Israel</Location>
    <Latitude>30.6092</Latitude>
    <Longitude>34.8015</Longitude>
    <MaxDistance>6</MaxDistance>
  </Volunteer>
  <Volunteer>
    <Id>202514079</Id>
    <FullName>Uzi Sharoni</FullName>
    <PhoneNumber>0519472623</PhoneNumber>
    <Email>volunteer11@gmail.com</Email>
    <TypeDistance>AerialDistance</TypeDistance>
    <Position>Volunteer</Position>
    <Active>true</Active>
    <Password>Cl*buDj$iZ*O</Password>
    <Location>Western Wall, Jerusalem, Israel</Location>
    <Latitude>31.7767</Latitude>
    <Longitude>35.2345</Longitude>
    <MaxDistance>17</MaxDistance>
  </Volunteer>
  <Volunteer>
    <Id>282981411</Id>
    <FullName>Shimon Ben-David</FullName>
    <PhoneNumber>0540041479</PhoneNumber>
    <Email>volunteer12@gmail.com</Email>
    <TypeDistance>AerialDistance</TypeDistance>
    <Position>Volunteer</Position>
    <Active>true</Active>
    <Password>iO1nhu$NTHmG</Password>
    <Location>Caesarea National Park, Israel</Location>
    <Latitude>32.4999</Latitude>
    <Longitude>34.8957</Longitude>
    <MaxDistance>13</MaxDistance>
  </Volunteer>
  <Volunteer>
    <Id>261730926</Id>
    <FullName>Matan Shalev</FullName>
    <PhoneNumber>0593741334</PhoneNumber>
    <Email>volunteer13@gmail.com</Email>
    <TypeDistance>AerialDistance</TypeDistance>
    <Position>Volunteer</Position>
    <Active>true</Active>
    <Password>^hnLI4x19#Sq</Password>
    <Location>Tel Aviv Port, Tel Aviv, Israel</Location>
    <Latitude>32.097</Latitude>
    <Longitude>34.7743</Longitude>
    <MaxDistance>7</MaxDistance>
  </Volunteer>
  <Volunteer>
    <Id>329180651</Id>
    <FullName>Asher Tzukrel</FullName>
    <PhoneNumber>0549993209</PhoneNumber>
    <Email>volunteer14@gmail.com</Email>
    <TypeDistance>AerialDistance</TypeDistance>
    <Position>Volunteer</Position>
    <Active>true</Active>
    <Password>2TxItBOU(Ye2</Password>
    <Location>Timna Park, Eilat, Israel</Location>
    <Latitude>29.7878</Latitude>
    <Longitude>34.9491</Longitude>
    <MaxDistance>16</MaxDistance>
  </Volunteer>
  <Volunteer>
    <Id>366673590</Id>
    <FullName>Oren Regev</FullName>
    <PhoneNumber>0560765018</PhoneNumber>
    <Email>volunteer15@gmail.com</Email>
    <TypeDistance>AerialDistance</TypeDistance>
    <Position>Volunteer</Position>
    <Active>true</Active>
    <Password>F0AOQSEZ4P6Q</Password>
    <Location>Banias Nature Reserve, Golan Heights, Israel</Location>
    <Latitude>33.2473</Latitude>
    <Longitude>35.6931</Longitude>
    <MaxDistance>13</MaxDistance>
  </Volunteer>
</ArrayOfVolunteer>