<?xml version="1.0" encoding="utf-8"?>
<ArrayOfVolunteer>
  <Volunteer>
    <Id>590989331</Id>
    <FullName>Yosef Cohen</FullName>
    <PhoneNumber>0569454426</PhoneNumber>
    <Email>volunteer1@gmail.com</Email>
    <DistanceType>DrivingDistance</DistanceType>
    <Position>admin</Position>
    <Active>true</Active>
    <Password>mR37cVFum3gh</Password>
    <Location>Western Wall, Jerusalem, Israel</Location>
    <Latitude>31.776694</Latitude>
    <Longitude>35.234524</Longitude>
    <MaxDistance>11</MaxDistance>
  </Volunteer>
  <Volunteer>
    <Id>651349963</Id>
    <FullName>Shmuel Levi</FullName>
    <PhoneNumber>0590918398</PhoneNumber>
    <Email>volunteer2@gmail.com</Email>
    <DistanceType>AerialDistance</DistanceType>
    <Position>admin</Position>
    <Active>true</Active>
    <Password>55WoAo^80F04</Password>
    <Location>Jaffa Gate, Jerusalem, Israel</Location>
    <Latitude>31.783499</Latitude>
    <Longitude>35.233924</Longitude>
    <MaxDistance>19</MaxDistance>
  </Volunteer>
  <Volunteer>
    <Id>518743263</Id>
    <FullName>Yaakov Goldstein</FullName>
    <PhoneNumber>0596217598</PhoneNumber>
    <Email>volunteer3@gmail.com</Email>
    <DistanceType>AerialDistance</DistanceType>
    <Position>volunteer</Position>
    <Active>true</Active>
    <Password>PVS3ypLis^^g</Password>
    <Location>Yad Vashem, Jerusalem, Israel</Location>
    <Latitude>31.774387</Latitude>
    <Longitude>35.1758</Longitude>
    <MaxDistance>18</MaxDistance>
  </Volunteer>
  <Volunteer>
    <Id>265694972</Id>
    <FullName>Moshe Friedman</FullName>
    <PhoneNumber>0527247423</PhoneNumber>
    <Email>volunteer4@gmail.com</Email>
    <DistanceType>DrivingDistance</DistanceType>
    <Position>volunteer</Position>
    <Active>false</Active>
    <Password>K@5ohdrt9iLA</Password>
    <Location>Mount of Olives, Jerusalem, Israel</Location>
    <Latitude>31.776772</Latitude>
    <Longitude>35.261929</Longitude>
    <MaxDistance>14</MaxDistance>
  </Volunteer>
  <Volunteer>
    <Id>935673317</Id>
    <FullName>Avraham Stein</FullName>
    <PhoneNumber>0538815447</PhoneNumber>
    <Email>volunteer5@gmail.com</Email>
    <DistanceType>DrivingDistance</DistanceType>
    <Position>volunteer</Position>
    <Active>false</Active>
    <Password>@MLSPxEatg*7</Password>
    <Location>Israel Museum, Jerusalem, Israel</Location>
    <Latitude>31.776723</Latitude>
    <Longitude>35.213707</Longitude>
    <MaxDistance>9</MaxDistance>
  </Volunteer>
  <Volunteer>
    <Id>151085026</Id>
    <FullName>Daniel Green</FullName>
    <PhoneNumber>0516108027</PhoneNumber>
    <Email>volunteer6@gmail.com</Email>
    <DistanceType>DrivingDistance</DistanceType>
    <Position>volunteer</Position>
    <Active>false</Active>
    <Password>m^vGF*WOUWFZ</Password>
    <Location>Mahane Yehuda Market, Jerusalem, Israel</Location>
    <Latitude>31.774524</Latitude>
    <Longitude>35.220499</Longitude>
    <MaxDistance>7</MaxDistance>
  </Volunteer>
  <Volunteer>
    <Id>528305621</Id>
    <FullName>David Weiss</FullName>
    <PhoneNumber>0539697605</PhoneNumber>
    <Email>volunteer7@gmail.com</Email>
    <DistanceType>DrivingDistance</DistanceType>
    <Position>volunteer</Position>
    <Active>true</Active>
    <Password>35#llQQHFCGO</Password>
    <Location>Old City, Jerusalem, Israel</Location>
    <Latitude>31.768319</Latitude>
    <Longitude>35.213745</Longitude>
    <MaxDistance>9</MaxDistance>
  </Volunteer>
  <Volunteer>
    <Id>148105822</Id>
    <FullName>Yonatan Rubin</FullName>
    <PhoneNumber>0556832605</PhoneNumber>
    <Email>volunteer8@gmail.com</Email>
    <DistanceType>DrivingDistance</DistanceType>
    <Position>volunteer</Position>
    <Active>false</Active>
    <Password>F%UBBwXvNsQu</Password>
    <Location>Church of the Holy Sepulchre, Jerusalem, Israel</Location>
    <Latitude>31.778159</Latitude>
    <Longitude>35.230828</Longitude>
    <MaxDistance>8</MaxDistance>
  </Volunteer>
  <Volunteer>
    <Id>401098547</Id>
    <FullName>Hanan Levy</FullName>
    <PhoneNumber>0575390127</PhoneNumber>
    <Email>volunteer9@gmail.com</Email>
    <DistanceType>AerialDistance</DistanceType>
    <Position>volunteer</Position>
    <Active>false</Active>
    <Password>fYRP1l!7r$t8</Password>
    <Location>The Knesset, Jerusalem, Israel</Location>
    <Latitude>31.768898</Latitude>
    <Longitude>35.225121</Longitude>
    <MaxDistance>19</MaxDistance>
  </Volunteer>
  <Volunteer>
    <Id>636893210</Id>
    <FullName>Eli Karp</FullName>
    <PhoneNumber>0551855660</PhoneNumber>
    <Email>volunteer10@gmail.com</Email>
    <DistanceType>DrivingDistance</DistanceType>
    <Position>volunteer</Position>
    <Active>false</Active>
    <Password>WalSCEtho$Jp</Password>
    <Location>Mount Herzl, Jerusalem, Israel</Location>
    <Latitude>31.749554</Latitude>
    <Longitude>35.211941</Longitude>
    <MaxDistance>9</MaxDistance>
  </Volunteer>
  <Volunteer>
    <Id>958141311</Id>
    <FullName>Uzi Sharoni</FullName>
    <PhoneNumber>0529234257</PhoneNumber>
    <Email>volunteer11@gmail.com</Email>
    <DistanceType>AerialDistance</DistanceType>
    <Position>volunteer</Position>
    <Active>false</Active>
    <Password>011*9kgvvRNI</Password>
    <Location>Zion Gate, Jerusalem, Israel</Location>
    <Latitude>31.773584</Latitude>
    <Longitude>35.23309</Longitude>
    <MaxDistance>17</MaxDistance>
  </Volunteer>
  <Volunteer>
    <Id>971656416</Id>
    <FullName>Shimon Ben-David</FullName>
    <PhoneNumber>0524551382</PhoneNumber>
    <Email>volunteer12@gmail.com</Email>
    <DistanceType>DrivingDistance</DistanceType>
    <Position>volunteer</Position>
    <Active>true</Active>
    <Password>x11D#f!Eim&amp;M</Password>
    <Location>Sacher Park, Jerusalem, Israel</Location>
    <Latitude>31.760126</Latitude>
    <Longitude>35.217681</Longitude>
    <MaxDistance>14</MaxDistance>
  </Volunteer>
  <Volunteer>
    <Id>537271691</Id>
    <FullName>Matan Shalev</FullName>
    <PhoneNumber>0553296580</PhoneNumber>
    <Email>volunteer13@gmail.com</Email>
    <DistanceType>DrivingDistance</DistanceType>
    <Position>volunteer</Position>
    <Active>false</Active>
    <Password>xNy3a0IC6F^v</Password>
    <Location>Ein Karem, Jerusalem, Israel</Location>
    <Latitude>31.762759</Latitude>
    <Longitude>35.167712</Longitude>
    <MaxDistance>13</MaxDistance>
  </Volunteer>
  <Volunteer>
    <Id>473060421</Id>
    <FullName>Asher Tzukrel</FullName>
    <PhoneNumber>0556581258</PhoneNumber>
    <Email>volunteer14@gmail.com</Email>
    <DistanceType>DrivingDistance</DistanceType>
    <Position>volunteer</Position>
    <Active>false</Active>
    <Password>YnYNM&amp;UWU3M(</Password>
    <Location>Hebron Road, Jerusalem, Israel</Location>
    <Latitude>31.735084</Latitude>
    <Longitude>35.222445</Longitude>
    <MaxDistance>6</MaxDistance>
  </Volunteer>
  <Volunteer>
    <Id>986490641</Id>
    <FullName>Oren Regev</FullName>
    <PhoneNumber>0527729452</PhoneNumber>
    <Email>volunteer15@gmail.com</Email>
    <DistanceType>DrivingDistance</DistanceType>
    <Position>volunteer</Position>
    <Active>true</Active>
    <Password>OXI8lM6jD9DT</Password>
    <Location>Montefiore Windmill, Jerusalem, Israel</Location>
    <Latitude>31.766133</Latitude>
    <Longitude>35.235729</Longitude>
    <MaxDistance>13</MaxDistance>
  </Volunteer>
</ArrayOfVolunteer>