<?xml version="1.0" encoding="utf-8"?>
<ArrayOfVolunteer>
  <Volunteer>
    <Id>227745495</Id>
    <FullName>Yosef Cohen</FullName>
    <PhoneNumber>0573244158</PhoneNumber>
    <Email>volunteer1@gmail.com</Email>
    <TypeDistance>AerialDistance</TypeDistance>
    <Position>Manager</Position>
    <Active>true</Active>
    <Password>Fv1mfEKqJQ#6</Password>
    <Location>Rothschild Boulevard, Tel Aviv, Israel</Location>
    <Latitude>32.0853</Latitude>
    <Longitude>34.7818</Longitude>
    <MaxDistance>19</MaxDistance>
  </Volunteer>
  <Volunteer>
    <Id>291906392</Id>
    <FullName>Shmuel Levi</FullName>
    <PhoneNumber>0554885073</PhoneNumber>
    <Email>volunteer2@gmail.com</Email>
    <TypeDistance>AerialDistance</TypeDistance>
    <Position>Volunteer</Position>
    <Active>true</Active>
    <Password>Udg0LdsD23eT</Password>
    <Location>Jaffa Gate, Jerusalem, Israel</Location>
    <Latitude>31.7683</Latitude>
    <Longitude>35.2137</Longitude>
    <MaxDistance>19</MaxDistance>
  </Volunteer>
  <Volunteer>
    <Id>219969522</Id>
    <FullName>Yaakov Goldstein</FullName>
    <PhoneNumber>0589172005</PhoneNumber>
    <Email>volunteer3@gmail.com</Email>
    <TypeDistance>AerialDistance</TypeDistance>
    <Position>Volunteer</Position>
    <Active>true</Active>
    <Password>Qv4ZnRLQN4EQ</Password>
    <Location>Baha'i Gardens, Haifa, Israel</Location>
    <Latitude>32.814</Latitude>
    <Longitude>34.9896</Longitude>
    <MaxDistance>16</MaxDistance>
  </Volunteer>
  <Volunteer>
    <Id>356163383</Id>
    <FullName>Moshe Friedman</FullName>
    <PhoneNumber>0529006061</PhoneNumber>
    <Email>volunteer4@gmail.com</Email>
    <TypeDistance>AerialDistance</TypeDistance>
    <Position>Volunteer</Position>
    <Active>true</Active>
    <Password>WyxCifDdR*JS</Password>
    <Location>Dead Sea, Israel</Location>
    <Latitude>31.559</Latitude>
    <Longitude>35.4732</Longitude>
    <MaxDistance>7</MaxDistance>
  </Volunteer>
  <Volunteer>
    <Id>200275597</Id>
    <FullName>Avraham Stein</FullName>
    <PhoneNumber>0580377462</PhoneNumber>
    <Email>volunteer5@gmail.com</Email>
    <TypeDistance>AerialDistance</TypeDistance>
    <Position>Volunteer</Position>
    <Active>true</Active>
    <Password>DG*F3vemqdBR</Password>
    <Location>Masada National Park, Israel</Location>
    <Latitude>31.3156</Latitude>
    <Longitude>35.3533</Longitude>
    <MaxDistance>15</MaxDistance>
  </Volunteer>
  <Volunteer>
    <Id>389736724</Id>
    <FullName>Daniel Green</FullName>
    <PhoneNumber>0559822384</PhoneNumber>
    <Email>volunteer6@gmail.com</Email>
    <TypeDistance>AerialDistance</TypeDistance>
    <Position>Volunteer</Position>
    <Active>true</Active>
    <Password>Fez!nwD3WG0a</Password>
    <Location>Eilat Coral Beach, Eilat, Israel</Location>
    <Latitude>29.5015</Latitude>
    <Longitude>34.9166</Longitude>
    <MaxDistance>6</MaxDistance>
  </Volunteer>
  <Volunteer>
    <Id>377422095</Id>
    <FullName>David Weiss</FullName>
    <PhoneNumber>0564670377</PhoneNumber>
    <Email>volunteer7@gmail.com</Email>
    <TypeDistance>AerialDistance</TypeDistance>
    <Position>Volunteer</Position>
    <Active>true</Active>
    <Password>Uzk$S8@qCw(l</Password>
    <Location>Yad Vashem, Jerusalem, Israel</Location>
    <Latitude>31.7744</Latitude>
    <Longitude>35.1758</Longitude>
    <MaxDistance>12</MaxDistance>
  </Volunteer>
  <Volunteer>
    <Id>211027295</Id>
    <FullName>Yonatan Rubin</FullName>
    <PhoneNumber>0592944595</PhoneNumber>
    <Email>volunteer8@gmail.com</Email>
    <TypeDistance>AerialDistance</TypeDistance>
    <Position>Volunteer</Position>
    <Active>true</Active>
    <Password>zwWVJicp6zQ9</Password>
    <Location>Carmel Market, Tel Aviv, Israel</Location>
    <Latitude>32.0681</Latitude>
    <Longitude>34.7705</Longitude>
    <MaxDistance>14</MaxDistance>
  </Volunteer>
  <Volunteer>
    <Id>204095240</Id>
    <FullName>Hanan Levy</FullName>
    <PhoneNumber>0565644272</PhoneNumber>
    <Email>volunteer9@gmail.com</Email>
    <TypeDistance>AerialDistance</TypeDistance>
    <Position>Volunteer</Position>
    <Active>true</Active>
    <Password>iB^G%QjBgYWc</Password>
    <Location>Sea of Galilee, Tiberias, Israel</Location>
    <Latitude>32.7959</Latitude>
    <Longitude>35.5312</Longitude>
    <MaxDistance>12</MaxDistance>
  </Volunteer>
  <Volunteer>
    <Id>251385444</Id>
    <FullName>Eli Karp</FullName>
    <PhoneNumber>0583040339</PhoneNumber>
    <Email>volunteer10@gmail.com</Email>
    <TypeDistance>AerialDistance</TypeDistance>
    <Position>Volunteer</Position>
    <Active>true</Active>
    <Password>*bL1tsVPTOa@</Password>
    <Location>Ramon Crater, Mitzpe Ramon, Israel</Location>
    <Latitude>30.6092</Latitude>
    <Longitude>34.8015</Longitude>
    <MaxDistance>10</MaxDistance>
  </Volunteer>
  <Volunteer>
    <Id>246901127</Id>
    <FullName>Uzi Sharoni</FullName>
    <PhoneNumber>0547237322</PhoneNumber>
    <Email>volunteer11@gmail.com</Email>
    <TypeDistance>AerialDistance</TypeDistance>
    <Position>Volunteer</Position>
    <Active>true</Active>
    <Password>p1Vh^27CRveY</Password>
    <Location>Western Wall, Jerusalem, Israel</Location>
    <Latitude>31.7767</Latitude>
    <Longitude>35.2345</Longitude>
    <MaxDistance>9</MaxDistance>
  </Volunteer>
  <Volunteer>
    <Id>201869722</Id>
    <FullName>Shimon Ben-David</FullName>
    <PhoneNumber>0558557074</PhoneNumber>
    <Email>volunteer12@gmail.com</Email>
    <TypeDistance>AerialDistance</TypeDistance>
    <Position>Volunteer</Position>
    <Active>true</Active>
    <Password>OxuxZM7kFc(E</Password>
    <Location>Caesarea National Park, Israel</Location>
    <Latitude>32.4999</Latitude>
    <Longitude>34.8957</Longitude>
    <MaxDistance>9</MaxDistance>
  </Volunteer>
  <Volunteer>
    <Id>268155382</Id>
    <FullName>Matan Shalev</FullName>
    <PhoneNumber>0522960132</PhoneNumber>
    <Email>volunteer13@gmail.com</Email>
    <TypeDistance>AerialDistance</TypeDistance>
    <Position>Volunteer</Position>
    <Active>true</Active>
    <Password>l3VC^Iz(oG^m</Password>
    <Location>Tel Aviv Port, Tel Aviv, Israel</Location>
    <Latitude>32.097</Latitude>
    <Longitude>34.7743</Longitude>
    <MaxDistance>17</MaxDistance>
  </Volunteer>
  <Volunteer>
    <Id>288578788</Id>
    <FullName>Asher Tzukrel</FullName>
    <PhoneNumber>0574089418</PhoneNumber>
    <Email>volunteer14@gmail.com</Email>
    <TypeDistance>AerialDistance</TypeDistance>
    <Position>Volunteer</Position>
    <Active>true</Active>
    <Password>p3*oBW%*EKcx</Password>
    <Location>Timna Park, Eilat, Israel</Location>
    <Latitude>29.7878</Latitude>
    <Longitude>34.9491</Longitude>
    <MaxDistance>14</MaxDistance>
  </Volunteer>
  <Volunteer>
    <Id>249276565</Id>
    <FullName>Oren Regev</FullName>
    <PhoneNumber>0563641754</PhoneNumber>
    <Email>volunteer15@gmail.com</Email>
    <TypeDistance>AerialDistance</TypeDistance>
    <Position>Volunteer</Position>
    <Active>true</Active>
    <Password>%HX4sS4c7Fv7</Password>
    <Location>Banias Nature Reserve, Golan Heights, Israel</Location>
    <Latitude>33.2473</Latitude>
    <Longitude>35.6931</Longitude>
    <MaxDistance>8</MaxDistance>
  </Volunteer>
</ArrayOfVolunteer>