<?xml version="1.0" encoding="utf-8"?>
<ArrayOfVolunteer>
  <Volunteer>Volunteer { Id = 308402188, FullName = Yosef Cohen, PhoneNumber = 0589327091, Email = volunteer1@gmail.com, Active = True, DistanceType = AerialDistance, Position = Manager, Password = eJ73rNrg3d^!, Location = Rothschild Boulevard, Tel Aviv, Israel, Latitude = 32.0853, Longitude = 34.7818, MaxDistance = 9 }</Volunteer>
  <Volunteer>Volunteer { Id = 392531039, FullName = Shmuel Levi, PhoneNumber = 0512379398, Email = volunteer2@gmail.com, Active = True, DistanceType = AerialDistance, Position = Volunteer, Password = QFm22C4W^IpE, Location = Jaffa Gate, Jerusalem, Israel, Latitude = 31.7683, Longitude = 35.2137, MaxDistance = 10 }</Volunteer>
  <Volunteer>Volunteer { Id = 392120043, FullName = Yaakov Goldstein, PhoneNumber = 0574269482, Email = volunteer3@gmail.com, Active = True, DistanceType = AerialDistance, Position = Volunteer, Password = )dOlKdgbHv!(, Location = Baha'i Gardens, Haifa, Israel, Latitude = 32.814, Longitude = 34.9896, MaxDistance = 17 }</Volunteer>
  <Volunteer>Volunteer { Id = 232043440, FullName = Moshe Friedman, PhoneNumber = 0551894511, Email = volunteer4@gmail.com, Active = True, DistanceType = AerialDistance, Position = Volunteer, Password = D26G&amp;@fMfPCQ, Location = Dead Sea, Israel, Latitude = 31.559, Longitude = 35.4732, MaxDistance = 13 }</Volunteer>
  <Volunteer>Volunteer { Id = 340808261, FullName = Avraham Stein, PhoneNumber = 0511907562, Email = volunteer5@gmail.com, Active = True, DistanceType = AerialDistance, Position = Volunteer, Password = *aLLFJ*DpC2e, Location = Masada National Park, Israel, Latitude = 31.3156, Longitude = 35.3533, MaxDistance = 15 }</Volunteer>
  <Volunteer>Volunteer { Id = 233775462, FullName = Daniel Green, PhoneNumber = 0594397630, Email = volunteer6@gmail.com, Active = True, DistanceType = AerialDistance, Position = Volunteer, Password = K3RSKg!@Qf9S, Location = Eilat Coral Beach, Eilat, Israel, Latitude = 29.5015, Longitude = 34.9166, MaxDistance = 19 }</Volunteer>
  <Volunteer>Volunteer { Id = 379079701, FullName = David Weiss, PhoneNumber = 0592828534, Email = volunteer7@gmail.com, Active = True, DistanceType = AerialDistance, Position = Volunteer, Password = 7Yk9HE!C8REe, Location = Yad Vashem, Jerusalem, Israel, Latitude = 31.7744, Longitude = 35.1758, MaxDistance = 12 }</Volunteer>
  <Volunteer>Volunteer { Id = 340118690, FullName = Yonatan Rubin, PhoneNumber = 0599274637, Email = volunteer8@gmail.com, Active = True, DistanceType = AerialDistance, Position = Volunteer, Password = )*ovT(Ml5c3w, Location = Carmel Market, Tel Aviv, Israel, Latitude = 32.0681, Longitude = 34.7705, MaxDistance = 12 }</Volunteer>
  <Volunteer>Volunteer { Id = 300719723, FullName = Hanan Levy, PhoneNumber = 0576166944, Email = volunteer9@gmail.com, Active = True, DistanceType = AerialDistance, Position = Volunteer, Password = tGP^j2ik%TIR, Location = Sea of Galilee, Tiberias, Israel, Latitude = 32.7959, Longitude = 35.5312, MaxDistance = 10 }</Volunteer>
  <Volunteer>Volunteer { Id = 203572858, FullName = Eli Karp, PhoneNumber = 0510773762, Email = volunteer10@gmail.com, Active = True, DistanceType = AerialDistance, Position = Volunteer, Password = sgeBnar%47Qz, Location = Ramon Crater, Mitzpe Ramon, Israel, Latitude = 30.6092, Longitude = 34.8015, MaxDistance = 12 }</Volunteer>
  <Volunteer>Volunteer { Id = 346548758, FullName = Uzi Sharoni, PhoneNumber = 0533479176, Email = volunteer11@gmail.com, Active = True, DistanceType = AerialDistance, Position = Volunteer, Password = JGyt%1C(T^7T, Location = Western Wall, Jerusalem, Israel, Latitude = 31.7767, Longitude = 35.2345, MaxDistance = 16 }</Volunteer>
  <Volunteer>Volunteer { Id = 315342943, FullName = Shimon Ben-David, PhoneNumber = 0565166753, Email = volunteer12@gmail.com, Active = True, DistanceType = AerialDistance, Position = Volunteer, Password = u^zNj*ziZWjJ, Location = Caesarea National Park, Israel, Latitude = 32.4999, Longitude = 34.8957, MaxDistance = 12 }</Volunteer>
  <Volunteer>Volunteer { Id = 346940418, FullName = Matan Shalev, PhoneNumber = 0584069128, Email = volunteer13@gmail.com, Active = True, DistanceType = AerialDistance, Position = Volunteer, Password = LysMU#XfV&amp;*(, Location = Tel Aviv Port, Tel Aviv, Israel, Latitude = 32.097, Longitude = 34.7743, MaxDistance = 18 }</Volunteer>
  <Volunteer>Volunteer { Id = 250675937, FullName = Asher Tzukrel, PhoneNumber = 0592255436, Email = volunteer14@gmail.com, Active = True, DistanceType = AerialDistance, Position = Volunteer, Password = l&amp;en#@xw64o$, Location = Timna Park, Eilat, Israel, Latitude = 29.7878, Longitude = 34.9491, MaxDistance = 14 }</Volunteer>
  <Volunteer>Volunteer { Id = 360163396, FullName = Oren Regev, PhoneNumber = 0546933138, Email = volunteer15@gmail.com, Active = True, DistanceType = AerialDistance, Position = Volunteer, Password = tlt9pVlB6$ys, Location = Banias Nature Reserve, Golan Heights, Israel, Latitude = 33.2473, Longitude = 35.6931, MaxDistance = 12 }</Volunteer>
</ArrayOfVolunteer>