<?xml version="1.0" encoding="utf-8"?>
<ArrayOfVolunteer>
  <Volunteer>
    <Id>333814494</Id>
    <FullName>Yosef Cohen</FullName>
    <PhoneNumber>0571822651</PhoneNumber>
    <Email>volunteer1@gmail.com</Email>
    <DistanceType>DrivingDistance</DistanceType>
    <Position>admin</Position>
    <Active>true</Active>
    <Password>6JLsaIy^Zf5@</Password>
    <Location>Rothschild Boulevard, Tel Aviv, Israel</Location>
    <Latitude>32.0655</Latitude>
    <Longitude>34.767028</Longitude>
    <MaxDistance>13</MaxDistance>
  </Volunteer>
  <Volunteer>
    <Id>302411057</Id>
    <FullName>Shmuel Levi</FullName>
    <PhoneNumber>0547038641</PhoneNumber>
    <Email>volunteer2@gmail.com</Email>
    <DistanceType>DrivingDistance</DistanceType>
    <Position>admin</Position>
    <Active>false</Active>
    <Password>KNc#BlP1*EQy</Password>
    <Location>Tel Aviv Port, Tel Aviv, Israel</Location>
    <Latitude>32.099791</Latitude>
    <Longitude>34.769077</Longitude>
    <MaxDistance>5</MaxDistance>
  </Volunteer>
  <Volunteer>
    <Id>991128708</Id>
    <FullName>Yaakov Goldstein</FullName>
    <PhoneNumber>0519283412</PhoneNumber>
    <Email>volunteer3@gmail.com</Email>
    <DistanceType>DrivingDistance</DistanceType>
    <Position>volunteer</Position>
    <Active>false</Active>
    <Password>PsXZYv@CsKgH</Password>
    <Location>Jaffa, Tel Aviv, Israel</Location>
    <Latitude>32.055823</Latitude>
    <Longitude>34.759151</Longitude>
    <MaxDistance>10</MaxDistance>
  </Volunteer>
  <Volunteer>
    <Id>951153296</Id>
    <FullName>Moshe Friedman</FullName>
    <PhoneNumber>0576043022</PhoneNumber>
    <Email>volunteer4@gmail.com</Email>
    <DistanceType>DrivingDistance</DistanceType>
    <Position>volunteer</Position>
    <Active>false</Active>
    <Password>CGFp!I(Y6O@d</Password>
    <Location>Neve Tzedek, Tel Aviv, Israel</Location>
    <Latitude>32.065764</Latitude>
    <Longitude>34.770022</Longitude>
    <MaxDistance>9</MaxDistance>
  </Volunteer>
  <Volunteer>
    <Id>381703168</Id>
    <FullName>Avraham Stein</FullName>
    <PhoneNumber>0558237950</PhoneNumber>
    <Email>volunteer5@gmail.com</Email>
    <DistanceType>DrivingDistance</DistanceType>
    <Position>volunteer</Position>
    <Active>false</Active>
    <Password>ECZiQ1kovW62</Password>
    <Location>Habima Theatre, Tel Aviv, Israel</Location>
    <Latitude>32.073743</Latitude>
    <Longitude>34.770498</Longitude>
    <MaxDistance>8</MaxDistance>
  </Volunteer>
  <Volunteer>
    <Id>477857546</Id>
    <FullName>Daniel Green</FullName>
    <PhoneNumber>0597938858</PhoneNumber>
    <Email>volunteer6@gmail.com</Email>
    <DistanceType>AerialDistance</DistanceType>
    <Position>volunteer</Position>
    <Active>false</Active>
    <Password>Da$LS)dKS@Ow</Password>
    <Location>Carmel Market, Tel Aviv, Israel</Location>
    <Latitude>32.065013</Latitude>
    <Longitude>34.76837</Longitude>
    <MaxDistance>9</MaxDistance>
  </Volunteer>
  <Volunteer>
    <Id>729046282</Id>
    <FullName>Hanan Levy</FullName>
    <PhoneNumber>0512005292</PhoneNumber>
    <Email>volunteer9@gmail.com</Email>
    <DistanceType>AerialDistance</DistanceType>
    <Position>volunteer</Position>
    <Active>true</Active>
    <Password>r@GbueD4aAfx</Password>
    <Location>Tel Aviv Museum of Art, Tel Aviv, Israel</Location>
    <Latitude>32.073418</Latitude>
    <Longitude>34.781046</Longitude>
    <MaxDistance>18</MaxDistance>
  </Volunteer>
  <Volunteer>
    <Id>490999921</Id>
    <FullName>Shimon Ben-David</FullName>
    <PhoneNumber>0560309960</PhoneNumber>
    <Email>volunteer12@gmail.com</Email>
    <DistanceType>AerialDistance</DistanceType>
    <Position>volunteer</Position>
    <Active>true</Active>
    <Password>#g)p6Bs6vbd&amp;</Password>
    <Location>Rabin Square, Tel Aviv, Israel</Location>
    <Latitude>32.07857</Latitude>
    <Longitude>34.768721</Longitude>
    <MaxDistance>16</MaxDistance>
  </Volunteer>
  <Volunteer>
    <Id>644915554</Id>
    <FullName>Asher Tzukrel</FullName>
    <PhoneNumber>0580014349</PhoneNumber>
    <Email>volunteer14@gmail.com</Email>
    <DistanceType>DrivingDistance</DistanceType>
    <Position>volunteer</Position>
    <Active>true</Active>
    <Password>^3hXSuzE#Yo4</Password>
    <Location>Gordon Beach, Tel Aviv, Israel</Location>
    <Latitude>32.071299</Latitude>
    <Longitude>34.767122</Longitude>
    <MaxDistance>6</MaxDistance>
  </Volunteer>
  <Volunteer>
    <Id>748346881</Id>
    <FullName>Oren Regev</FullName>
    <PhoneNumber>0560729278</PhoneNumber>
    <Email>volunteer15@gmail.com</Email>
    <DistanceType>DrivingDistance</DistanceType>
    <Position>volunteer</Position>
    <Active>true</Active>
    <Password>PGO)ZoEzmdrh</Password>
    <Location>Azrieli Center, Tel Aviv, Israel</Location>
    <Latitude>32.0737</Latitude>
    <Longitude>34.791202</Longitude>
    <MaxDistance>15</MaxDistance>
  </Volunteer>
  <Volunteer>
    <Id>603852905</Id>
    <FullName>Moshe Friedman</FullName>
    <PhoneNumber>0591315874</PhoneNumber>
    <Email>volunteer4@gmail.com</Email>
    <DistanceType>DrivingDistance</DistanceType>
    <Position>volunteer</Position>
    <Active>true</Active>
    <Password>MOmvAOzF%6SW</Password>
    <Location>Neve Tzedek, Tel Aviv, Israel</Location>
    <Latitude>32.065764</Latitude>
    <Longitude>34.770022</Longitude>
    <MaxDistance>11</MaxDistance>
  </Volunteer>
  <Volunteer>
    <Id>947411082</Id>
    <FullName>Matan Shalev</FullName>
    <PhoneNumber>0530482093</PhoneNumber>
    <Email>volunteer13@gmail.com</Email>
    <DistanceType>AerialDistance</DistanceType>
    <Position>volunteer</Position>
    <Active>true</Active>
    <Password>FVBLRMzjeAp%</Password>
    <Location>Levinsky Market, Tel Aviv, Israel</Location>
    <Latitude>32.061425</Latitude>
    <Longitude>34.766412</Longitude>
    <MaxDistance>17</MaxDistance>
  </Volunteer>
  <Volunteer>
    <Id>274507667</Id>
    <FullName>Asher Tzukrel</FullName>
    <PhoneNumber>0514682381</PhoneNumber>
    <Email>volunteer14@gmail.com</Email>
    <DistanceType>DrivingDistance</DistanceType>
    <Position>volunteer</Position>
    <Active>true</Active>
    <Password>z!jPpSa%s%#d</Password>
    <Location>Gordon Beach, Tel Aviv, Israel</Location>
    <Latitude>32.071299</Latitude>
    <Longitude>34.767122</Longitude>
    <MaxDistance>14</MaxDistance>
  </Volunteer>
  <Volunteer>
    <Id>163641106</Id>
    <FullName>Oren Regev</FullName>
    <PhoneNumber>0587136753</PhoneNumber>
    <Email>volunteer15@gmail.com</Email>
    <DistanceType>AerialDistance</DistanceType>
    <Position>volunteer</Position>
    <Active>false</Active>
    <Password>ZSvQto7J45N1</Password>
    <Location>Azrieli Center, Tel Aviv, Israel</Location>
    <Latitude>32.0737</Latitude>
    <Longitude>34.791202</Longitude>
    <MaxDistance>19</MaxDistance>
  </Volunteer>
</ArrayOfVolunteer>