<?xml version="1.0" encoding="utf-8"?>
<ArrayOfVolunteer>
  <Volunteer>
    <Id>384069595</Id>
    <FullName>Yosef Cohen</FullName>
    <PhoneNumber>0535094056</PhoneNumber>
    <Email>volunteer1@gmail.com</Email>
    <TypeDistance>AerialDistance</TypeDistance>
    <Position>Manager</Position>
    <Active>true</Active>
    <Password>rmeOIP&amp;R30Kq</Password>
    <Location>Rothschild Boulevard, Tel Aviv, Israel</Location>
    <Latitude>32.0853</Latitude>
    <Longitude>34.7818</Longitude>
    <MaxDistance>10</MaxDistance>
  </Volunteer>
  <Volunteer>
    <Id>322706468</Id>
    <FullName>Shmuel Levi</FullName>
    <PhoneNumber>0537436318</PhoneNumber>
    <Email>volunteer2@gmail.com</Email>
    <TypeDistance>AerialDistance</TypeDistance>
    <Position>Volunteer</Position>
    <Active>true</Active>
    <Password>g!ibCY)1N0KU</Password>
    <Location>Jaffa Gate, Jerusalem, Israel</Location>
    <Latitude>31.7683</Latitude>
    <Longitude>35.2137</Longitude>
    <MaxDistance>13</MaxDistance>
  </Volunteer>
  <Volunteer>
    <Id>263807777</Id>
    <FullName>Yaakov Goldstein</FullName>
    <PhoneNumber>0541269862</PhoneNumber>
    <Email>volunteer3@gmail.com</Email>
    <TypeDistance>AerialDistance</TypeDistance>
    <Position>Volunteer</Position>
    <Active>true</Active>
    <Password>WjDB)(Z1(a6P</Password>
    <Location>Baha'i Gardens, Haifa, Israel</Location>
    <Latitude>32.814</Latitude>
    <Longitude>34.9896</Longitude>
    <MaxDistance>10</MaxDistance>
  </Volunteer>
  <Volunteer>
    <Id>306961932</Id>
    <FullName>Moshe Friedman</FullName>
    <PhoneNumber>0547570138</PhoneNumber>
    <Email>volunteer4@gmail.com</Email>
    <TypeDistance>AerialDistance</TypeDistance>
    <Position>Volunteer</Position>
    <Active>true</Active>
    <Password>OTBa*$luV6Yq</Password>
    <Location>Dead Sea, Israel</Location>
    <Latitude>31.559</Latitude>
    <Longitude>35.4732</Longitude>
    <MaxDistance>16</MaxDistance>
  </Volunteer>
  <Volunteer>
    <Id>324795560</Id>
    <FullName>Avraham Stein</FullName>
    <PhoneNumber>0594013542</PhoneNumber>
    <Email>volunteer5@gmail.com</Email>
    <TypeDistance>AerialDistance</TypeDistance>
    <Position>Volunteer</Position>
    <Active>true</Active>
    <Password>tXkuCveW#n*I</Password>
    <Location>Masada National Park, Israel</Location>
    <Latitude>31.3156</Latitude>
    <Longitude>35.3533</Longitude>
    <MaxDistance>7</MaxDistance>
  </Volunteer>
  <Volunteer>
    <Id>363558715</Id>
    <FullName>Daniel Green</FullName>
    <PhoneNumber>0520287022</PhoneNumber>
    <Email>volunteer6@gmail.com</Email>
    <TypeDistance>AerialDistance</TypeDistance>
    <Position>Volunteer</Position>
    <Active>true</Active>
    <Password>MKc5!)M4PjWS</Password>
    <Location>Eilat Coral Beach, Eilat, Israel</Location>
    <Latitude>29.5015</Latitude>
    <Longitude>34.9166</Longitude>
    <MaxDistance>10</MaxDistance>
  </Volunteer>
  <Volunteer>
    <Id>275621031</Id>
    <FullName>David Weiss</FullName>
    <PhoneNumber>0518480578</PhoneNumber>
    <Email>volunteer7@gmail.com</Email>
    <TypeDistance>AerialDistance</TypeDistance>
    <Position>Volunteer</Position>
    <Active>true</Active>
    <Password>K&amp;Vn&amp;c0HGc)b</Password>
    <Location>Yad Vashem, Jerusalem, Israel</Location>
    <Latitude>31.7744</Latitude>
    <Longitude>35.1758</Longitude>
    <MaxDistance>16</MaxDistance>
  </Volunteer>
  <Volunteer>
    <Id>267328380</Id>
    <FullName>Yonatan Rubin</FullName>
    <PhoneNumber>0524736141</PhoneNumber>
    <Email>volunteer8@gmail.com</Email>
    <TypeDistance>AerialDistance</TypeDistance>
    <Position>Volunteer</Position>
    <Active>true</Active>
    <Password>aM(Rgnk)2@Bl</Password>
    <Location>Carmel Market, Tel Aviv, Israel</Location>
    <Latitude>32.0681</Latitude>
    <Longitude>34.7705</Longitude>
    <MaxDistance>19</MaxDistance>
  </Volunteer>
  <Volunteer>
    <Id>364108549</Id>
    <FullName>Hanan Levy</FullName>
    <PhoneNumber>0513535678</PhoneNumber>
    <Email>volunteer9@gmail.com</Email>
    <TypeDistance>AerialDistance</TypeDistance>
    <Position>Volunteer</Position>
    <Active>true</Active>
    <Password>2QXaDVjQ%a5Z</Password>
    <Location>Sea of Galilee, Tiberias, Israel</Location>
    <Latitude>32.7959</Latitude>
    <Longitude>35.5312</Longitude>
    <MaxDistance>8</MaxDistance>
  </Volunteer>
  <Volunteer>
    <Id>373333879</Id>
    <FullName>Eli Karp</FullName>
    <PhoneNumber>0536216611</PhoneNumber>
    <Email>volunteer10@gmail.com</Email>
    <TypeDistance>AerialDistance</TypeDistance>
    <Position>Volunteer</Position>
    <Active>true</Active>
    <Password>7ublfVaqZPbt</Password>
    <Location>Ramon Crater, Mitzpe Ramon, Israel</Location>
    <Latitude>30.6092</Latitude>
    <Longitude>34.8015</Longitude>
    <MaxDistance>5</MaxDistance>
  </Volunteer>
  <Volunteer>
    <Id>318554635</Id>
    <FullName>Uzi Sharoni</FullName>
    <PhoneNumber>0591394409</PhoneNumber>
    <Email>volunteer11@gmail.com</Email>
    <TypeDistance>AerialDistance</TypeDistance>
    <Position>Volunteer</Position>
    <Active>true</Active>
    <Password>30qq$09Hu@bW</Password>
    <Location>Western Wall, Jerusalem, Israel</Location>
    <Latitude>31.7767</Latitude>
    <Longitude>35.2345</Longitude>
    <MaxDistance>17</MaxDistance>
  </Volunteer>
  <Volunteer>
    <Id>370950138</Id>
    <FullName>Shimon Ben-David</FullName>
    <PhoneNumber>0586158473</PhoneNumber>
    <Email>volunteer12@gmail.com</Email>
    <TypeDistance>AerialDistance</TypeDistance>
    <Position>Volunteer</Position>
    <Active>true</Active>
    <Password>1q&amp;au8IW%gDD</Password>
    <Location>Caesarea National Park, Israel</Location>
    <Latitude>32.4999</Latitude>
    <Longitude>34.8957</Longitude>
    <MaxDistance>18</MaxDistance>
  </Volunteer>
  <Volunteer>
    <Id>362566323</Id>
    <FullName>Matan Shalev</FullName>
    <PhoneNumber>0570757859</PhoneNumber>
    <Email>volunteer13@gmail.com</Email>
    <TypeDistance>AerialDistance</TypeDistance>
    <Position>Volunteer</Position>
    <Active>true</Active>
    <Password>o1$gxOUX1XUG</Password>
    <Location>Tel Aviv Port, Tel Aviv, Israel</Location>
    <Latitude>32.097</Latitude>
    <Longitude>34.7743</Longitude>
    <MaxDistance>14</MaxDistance>
  </Volunteer>
  <Volunteer>
    <Id>283586221</Id>
    <FullName>Asher Tzukrel</FullName>
    <PhoneNumber>0510019850</PhoneNumber>
    <Email>volunteer14@gmail.com</Email>
    <TypeDistance>AerialDistance</TypeDistance>
    <Position>Volunteer</Position>
    <Active>true</Active>
    <Password>fRXzQG7&amp;4Cd$</Password>
    <Location>Timna Park, Eilat, Israel</Location>
    <Latitude>29.7878</Latitude>
    <Longitude>34.9491</Longitude>
    <MaxDistance>12</MaxDistance>
  </Volunteer>
  <Volunteer>
    <Id>349401267</Id>
    <FullName>Oren Regev</FullName>
    <PhoneNumber>0571417172</PhoneNumber>
    <Email>volunteer15@gmail.com</Email>
    <TypeDistance>AerialDistance</TypeDistance>
    <Position>Volunteer</Position>
    <Active>true</Active>
    <Password>gp^mPlqKt3Fb</Password>
    <Location>Banias Nature Reserve, Golan Heights, Israel</Location>
    <Latitude>33.2473</Latitude>
    <Longitude>35.6931</Longitude>
    <MaxDistance>19</MaxDistance>
  </Volunteer>
</ArrayOfVolunteer>