<?xml version="1.0" encoding="utf-8"?>
<ArrayOfVolunteer>
  <Volunteer>
    <Id>370776416</Id>
    <FullName>Yosef Cohen</FullName>
    <PhoneNumber>0580990614</PhoneNumber>
    <Email>volunteer1@gmail.com</Email>
    <TypeDistance>AerialDistance</TypeDistance>
    <Position>Manager</Position>
    <Active>true</Active>
    <Password>VGDeZ89z7avV</Password>
    <Location>Rothschild Boulevard, Tel Aviv, Israel</Location>
    <Latitude>32.0853</Latitude>
    <Longitude>34.7818</Longitude>
    <MaxDistance>12</MaxDistance>
  </Volunteer>
  <Volunteer>
    <Id>337197203</Id>
    <FullName>Shmuel Levi</FullName>
    <PhoneNumber>0563983357</PhoneNumber>
    <Email>volunteer2@gmail.com</Email>
    <TypeDistance>AerialDistance</TypeDistance>
    <Position>Volunteer</Position>
    <Active>true</Active>
    <Password>ftc(8^n29%!Q</Password>
    <Location>Jaffa Gate, Jerusalem, Israel</Location>
    <Latitude>31.7683</Latitude>
    <Longitude>35.2137</Longitude>
    <MaxDistance>17</MaxDistance>
  </Volunteer>
  <Volunteer>
    <Id>245952828</Id>
    <FullName>Yaakov Goldstein</FullName>
    <PhoneNumber>0535674396</PhoneNumber>
    <Email>volunteer3@gmail.com</Email>
    <TypeDistance>AerialDistance</TypeDistance>
    <Position>Volunteer</Position>
    <Active>true</Active>
    <Password>Yf!%MXeu0@0S</Password>
    <Location>Baha'i Gardens, Haifa, Israel</Location>
    <Latitude>32.814</Latitude>
    <Longitude>34.9896</Longitude>
    <MaxDistance>14</MaxDistance>
  </Volunteer>
  <Volunteer>
    <Id>255779579</Id>
    <FullName>Moshe Friedman</FullName>
    <PhoneNumber>0542005710</PhoneNumber>
    <Email>volunteer4@gmail.com</Email>
    <TypeDistance>AerialDistance</TypeDistance>
    <Position>Volunteer</Position>
    <Active>true</Active>
    <Password>)KmuUkC#Q0tX</Password>
    <Location>Dead Sea, Israel</Location>
    <Latitude>31.559</Latitude>
    <Longitude>35.4732</Longitude>
    <MaxDistance>18</MaxDistance>
  </Volunteer>
  <Volunteer>
    <Id>373198593</Id>
    <FullName>Avraham Stein</FullName>
    <PhoneNumber>0563680626</PhoneNumber>
    <Email>volunteer5@gmail.com</Email>
    <TypeDistance>AerialDistance</TypeDistance>
    <Position>Volunteer</Position>
    <Active>true</Active>
    <Password>qj8(U6K$&amp;)sd</Password>
    <Location>Masada National Park, Israel</Location>
    <Latitude>31.3156</Latitude>
    <Longitude>35.3533</Longitude>
    <MaxDistance>9</MaxDistance>
  </Volunteer>
  <Volunteer>
    <Id>208695311</Id>
    <FullName>Daniel Green</FullName>
    <PhoneNumber>0535332886</PhoneNumber>
    <Email>volunteer6@gmail.com</Email>
    <TypeDistance>AerialDistance</TypeDistance>
    <Position>Volunteer</Position>
    <Active>true</Active>
    <Password>rofSG7BQl461</Password>
    <Location>Eilat Coral Beach, Eilat, Israel</Location>
    <Latitude>29.5015</Latitude>
    <Longitude>34.9166</Longitude>
    <MaxDistance>13</MaxDistance>
  </Volunteer>
  <Volunteer>
    <Id>203568492</Id>
    <FullName>David Weiss</FullName>
    <PhoneNumber>0577480657</PhoneNumber>
    <Email>volunteer7@gmail.com</Email>
    <TypeDistance>AerialDistance</TypeDistance>
    <Position>Volunteer</Position>
    <Active>true</Active>
    <Password>@1RvhWi6h$VM</Password>
    <Location>Yad Vashem, Jerusalem, Israel</Location>
    <Latitude>31.7744</Latitude>
    <Longitude>35.1758</Longitude>
    <MaxDistance>5</MaxDistance>
  </Volunteer>
  <Volunteer>
    <Id>276691947</Id>
    <FullName>Yonatan Rubin</FullName>
    <PhoneNumber>0510927853</PhoneNumber>
    <Email>volunteer8@gmail.com</Email>
    <TypeDistance>AerialDistance</TypeDistance>
    <Position>Volunteer</Position>
    <Active>true</Active>
    <Password>jII2^G&amp;XHKVd</Password>
    <Location>Carmel Market, Tel Aviv, Israel</Location>
    <Latitude>32.0681</Latitude>
    <Longitude>34.7705</Longitude>
    <MaxDistance>6</MaxDistance>
  </Volunteer>
  <Volunteer>
    <Id>201049476</Id>
    <FullName>Hanan Levy</FullName>
    <PhoneNumber>0539074655</PhoneNumber>
    <Email>volunteer9@gmail.com</Email>
    <TypeDistance>AerialDistance</TypeDistance>
    <Position>Volunteer</Position>
    <Active>true</Active>
    <Password>uL0eri7BNis@</Password>
    <Location>Sea of Galilee, Tiberias, Israel</Location>
    <Latitude>32.7959</Latitude>
    <Longitude>35.5312</Longitude>
    <MaxDistance>12</MaxDistance>
  </Volunteer>
  <Volunteer>
    <Id>273509502</Id>
    <FullName>Eli Karp</FullName>
    <PhoneNumber>0527509025</PhoneNumber>
    <Email>volunteer10@gmail.com</Email>
    <TypeDistance>AerialDistance</TypeDistance>
    <Position>Volunteer</Position>
    <Active>true</Active>
    <Password>&amp;&amp;prYa4^G(*U</Password>
    <Location>Ramon Crater, Mitzpe Ramon, Israel</Location>
    <Latitude>30.6092</Latitude>
    <Longitude>34.8015</Longitude>
    <MaxDistance>8</MaxDistance>
  </Volunteer>
  <Volunteer>
    <Id>315601903</Id>
    <FullName>Uzi Sharoni</FullName>
    <PhoneNumber>0530477038</PhoneNumber>
    <Email>volunteer11@gmail.com</Email>
    <TypeDistance>AerialDistance</TypeDistance>
    <Position>Volunteer</Position>
    <Active>true</Active>
    <Password>3)V@UyNrsmu7</Password>
    <Location>Western Wall, Jerusalem, Israel</Location>
    <Latitude>31.7767</Latitude>
    <Longitude>35.2345</Longitude>
    <MaxDistance>11</MaxDistance>
  </Volunteer>
  <Volunteer>
    <Id>206479458</Id>
    <FullName>Shimon Ben-David</FullName>
    <PhoneNumber>0571966677</PhoneNumber>
    <Email>volunteer12@gmail.com</Email>
    <TypeDistance>AerialDistance</TypeDistance>
    <Position>Volunteer</Position>
    <Active>true</Active>
    <Password>DwPv6mKcr&amp;OE</Password>
    <Location>Caesarea National Park, Israel</Location>
    <Latitude>32.4999</Latitude>
    <Longitude>34.8957</Longitude>
    <MaxDistance>18</MaxDistance>
  </Volunteer>
  <Volunteer>
    <Id>256703716</Id>
    <FullName>Matan Shalev</FullName>
    <PhoneNumber>0538758969</PhoneNumber>
    <Email>volunteer13@gmail.com</Email>
    <TypeDistance>AerialDistance</TypeDistance>
    <Position>Volunteer</Position>
    <Active>true</Active>
    <Password>4U*z3)yBk5YX</Password>
    <Location>Tel Aviv Port, Tel Aviv, Israel</Location>
    <Latitude>32.097</Latitude>
    <Longitude>34.7743</Longitude>
    <MaxDistance>9</MaxDistance>
  </Volunteer>
  <Volunteer>
    <Id>265229111</Id>
    <FullName>Asher Tzukrel</FullName>
    <PhoneNumber>0570562259</PhoneNumber>
    <Email>volunteer14@gmail.com</Email>
    <TypeDistance>AerialDistance</TypeDistance>
    <Position>Volunteer</Position>
    <Active>true</Active>
    <Password>3Yd^dU1)mHYD</Password>
    <Location>Timna Park, Eilat, Israel</Location>
    <Latitude>29.7878</Latitude>
    <Longitude>34.9491</Longitude>
    <MaxDistance>15</MaxDistance>
  </Volunteer>
  <Volunteer>
    <Id>335634951</Id>
    <FullName>Oren Regev</FullName>
    <PhoneNumber>0546985864</PhoneNumber>
    <Email>volunteer15@gmail.com</Email>
    <TypeDistance>AerialDistance</TypeDistance>
    <Position>Volunteer</Position>
    <Active>true</Active>
    <Password>$BHWrp(^b9!c</Password>
    <Location>Banias Nature Reserve, Golan Heights, Israel</Location>
    <Latitude>33.2473</Latitude>
    <Longitude>35.6931</Longitude>
    <MaxDistance>16</MaxDistance>
  </Volunteer>
</ArrayOfVolunteer>