<?xml version="1.0" encoding="utf-8"?>
<ArrayOfVolunteer>
  <Volunteer>
    <Id>489201501</Id>
    <FullName>Shmuel Levi</FullName>
    <PhoneNumber>0538420135</PhoneNumber>
    <Email>volunteer2@gmail.com</Email>
    <DistanceType>DrivingDistance</DistanceType>
    <Position>admin</Position>
    <Active>false</Active>
    <Password>KNc#BlP1*EQy</Password>
    <Location>Tel Aviv Port, Tel Aviv, Israel</Location>
    <Latitude>32.099791</Latitude>
    <Longitude>34.769077</Longitude>
    <MaxDistance>5</MaxDistance>
  </Volunteer>
  <Volunteer>
    <Id>878648518</Id>
    <FullName>Yaakov Goldstein</FullName>
    <PhoneNumber>0524794309</PhoneNumber>
    <Email>volunteer3@gmail.com</Email>
    <DistanceType>AerialDistance</DistanceType>
    <Position>volunteer</Position>
    <Active>false</Active>
    <Password>YlHI^fD@6gD9</Password>
    <Location>Jaffa, Tel Aviv, Israel</Location>
    <Latitude>32.055823</Latitude>
    <Longitude>34.759151</Longitude>
    <MaxDistance>19</MaxDistance>
  </Volunteer>
  <Volunteer>
    <Id>113558881</Id>
    <FullName>Avraham Stein</FullName>
    <PhoneNumber>0558237950</PhoneNumber>
    <Email>volunteer5@gmail.com</Email>
    <DistanceType>DrivingDistance</DistanceType>
    <Position>volunteer</Position>
    <Active>false</Active>
    <Password>ECZiQ1kovW62</Password>
    <Location>Habima Theatre, Tel Aviv, Israel</Location>
    <Latitude>32.073743</Latitude>
    <Longitude>34.770498</Longitude>
    <MaxDistance>9</MaxDistance>
  </Volunteer>
  <Volunteer>
    <Id>477857546</Id>
    <FullName>Daniel Green</FullName>
    <PhoneNumber>0597938858</PhoneNumber>
    <Email>volunteer6@gmail.com</Email>
    <DistanceType>DrivingDistance</DistanceType>
    <Position>volunteer</Position>
    <Active>false</Active>
    <Password>Da$LS)dKS@Ow</Password>
    <Location>Carmel Market, Tel Aviv, Israel</Location>
    <Latitude>32.065013</Latitude>
    <Longitude>34.76837</Longitude>
    <MaxDistance>9</MaxDistance>
  </Volunteer>
  <Volunteer>
    <Id>348043412</Id>
    <FullName>David Weiss</FullName>
    <PhoneNumber>0542612608</PhoneNumber>
    <Email>volunteer7@gmail.com</Email>
    <DistanceType>DrivingDistance</DistanceType>
    <Position>volunteer</Position>
    <Active>false</Active>
    <Password>otaN$27U^^t9</Password>
    <Location>Dizengoff Square, Tel Aviv, Israel</Location>
    <Latitude>32.078323</Latitude>
    <Longitude>34.77034</Longitude>
    <MaxDistance>6</MaxDistance>
  </Volunteer>
  <Volunteer>
    <Id>504704609</Id>
    <FullName>Yonatan Rubin</FullName>
    <PhoneNumber>0597447730</PhoneNumber>
    <Email>volunteer8@gmail.com</Email>
    <DistanceType>DrivingDistance</DistanceType>
    <Position>volunteer</Position>
    <Active>false</Active>
    <Password>%c3Yxii#4Jac</Password>
    <Location>Yarkon Park, Tel Aviv, Israel</Location>
    <Latitude>32.087573</Latitude>
    <Longitude>34.781904</Longitude>
    <MaxDistance>12</MaxDistance>
  </Volunteer>
  <Volunteer>
    <Id>729046282</Id>
    <FullName>Hanan Levy</FullName>
    <PhoneNumber>0512005292</PhoneNumber>
    <Email>volunteer9@gmail.com</Email>
    <DistanceType>AerialDistance</DistanceType>
    <Position>volunteer</Position>
    <Active>true</Active>
    <Password>r@GbueD4aAfx</Password>
    <Location>Tel Aviv Museum of Art, Tel Aviv, Israel</Location>
    <Latitude>32.073418</Latitude>
    <Longitude>34.781046</Longitude>
    <MaxDistance>18</MaxDistance>
  </Volunteer>
  <Volunteer>
    <Id>264934230</Id>
    <FullName>Eli Karp</FullName>
    <PhoneNumber>0541104422</PhoneNumber>
    <Email>volunteer10@gmail.com</Email>
    <DistanceType>AerialDistance</DistanceType>
    <Position>volunteer</Position>
    <Active>false</Active>
    <Password>ey3E6q7p5k9j</Password>
    <Location>Florentin, Tel Aviv, Israel</Location>
    <Latitude>32.054186</Latitude>
    <Longitude>34.759738</Longitude>
    <MaxDistance>18</MaxDistance>
  </Volunteer>
  <Volunteer>
    <Id>530141902</Id>
    <FullName>Uzi Sharoni</FullName>
    <PhoneNumber>0591172019</PhoneNumber>
    <Email>volunteer11@gmail.com</Email>
    <DistanceType>AerialDistance</DistanceType>
    <Position>volunteer</Position>
    <Active>true</Active>
    <Password>ol09b*zyb1#7</Password>
    <Location>Jaffa Port, Tel Aviv, Israel</Location>
    <Latitude>32.053704</Latitude>
    <Longitude>34.756671</Longitude>
    <MaxDistance>16</MaxDistance>
  </Volunteer>
  <Volunteer>
    <Id>490999921</Id>
    <FullName>Shimon Ben-David</FullName>
    <PhoneNumber>0560309960</PhoneNumber>
    <Email>volunteer12@gmail.com</Email>
    <DistanceType>AerialDistance</DistanceType>
    <Position>volunteer</Position>
    <Active>true</Active>
    <Password>#g)p6Bs6vbd&amp;</Password>
    <Location>Rabin Square, Tel Aviv, Israel</Location>
    <Latitude>32.07857</Latitude>
    <Longitude>34.768721</Longitude>
    <MaxDistance>16</MaxDistance>
  </Volunteer>
  <Volunteer>
    <Id>644915554</Id>
    <FullName>Asher Tzukrel</FullName>
    <PhoneNumber>0580014349</PhoneNumber>
    <Email>volunteer14@gmail.com</Email>
    <DistanceType>DrivingDistance</DistanceType>
    <Position>volunteer</Position>
    <Active>true</Active>
    <Password>^3hXSuzE#Yo4</Password>
    <Location>Gordon Beach, Tel Aviv, Israel</Location>
    <Latitude>32.071299</Latitude>
    <Longitude>34.767122</Longitude>
    <MaxDistance>6</MaxDistance>
  </Volunteer>
  <Volunteer>
    <Id>748346881</Id>
    <FullName>Oren Regev</FullName>
    <PhoneNumber>0560729278</PhoneNumber>
    <Email>volunteer15@gmail.com</Email>
    <DistanceType>DrivingDistance</DistanceType>
    <Position>volunteer</Position>
    <Active>true</Active>
    <Password>PGO)ZoEzmdrh</Password>
    <Location>Azrieli Center, Tel Aviv, Israel</Location>
    <Latitude>32.0737</Latitude>
    <Longitude>34.791202</Longitude>
    <MaxDistance>15</MaxDistance>
  </Volunteer>
  <Volunteer>
    <Id>603852905</Id>
    <FullName>Moshe Friedman</FullName>
    <PhoneNumber>0591315874</PhoneNumber>
    <Email>volunteer4@gmail.com</Email>
    <DistanceType>DrivingDistance</DistanceType>
    <Position>volunteer</Position>
    <Active>true</Active>
    <Password>MOmvAOzF%6SW</Password>
    <Location>Neve Tzedek, Tel Aviv, Israel</Location>
    <Latitude>32.065764</Latitude>
    <Longitude>34.770022</Longitude>
    <MaxDistance>11</MaxDistance>
  </Volunteer>
  <Volunteer>
    <Id>319356983</Id>
    <FullName>Yosef Cohen</FullName>
    <PhoneNumber>0569845024</PhoneNumber>
    <Email>volunteer1@gmail.com</Email>
    <DistanceType>DrivingDistance</DistanceType>
    <Position>admin</Position>
    <Active>true</Active>
    <Password>kG*C6v&amp;Ay1tM</Password>
    <Location>Gordon Beach, Tel Aviv, Israel</Location>
    <Latitude>32.0655</Latitude>
    <Longitude>34.767028</Longitude>
    <MaxDistance>12</MaxDistance>
  </Volunteer>
  <Volunteer>
    <Id>919741876</Id>
    <FullName>Asher Tzukrel</FullName>
    <PhoneNumber>0580014349</PhoneNumber>
    <Email>volunteer14@gmail.com</Email>
    <DistanceType>DrivingDistance</DistanceType>
    <Position>volunteer</Position>
    <Active>true</Active>
    <Password>^3hXSuzE#Yo4</Password>
    <Location>Gordon Beach, Tel Aviv, Israel</Location>
    <Latitude>32.071299</Latitude>
    <Longitude>34.767122</Longitude>
    <MaxDistance>6</MaxDistance>
  </Volunteer>
</ArrayOfVolunteer>