<?xml version="1.0" encoding="utf-8"?>
<ArrayOfVolunteer>
  <Volunteer>
    <Id>203431469</Id>
    <FullName>Yosef Cohen</FullName>
    <PhoneNumber>0572741509</PhoneNumber>
    <Email>volunteer1@gmail.com</Email>
    <TypeDistance>AerialDistance</TypeDistance>
    <Position>Manager</Position>
    <Active>true</Active>
    <Password>0)!vf*tuM$Dg</Password>
    <Location>Rothschild Boulevard, Tel Aviv, Israel</Location>
    <Latitude>32.0853</Latitude>
    <Longitude>34.7818</Longitude>
    <MaxDistance>6</MaxDistance>
  </Volunteer>
  <Volunteer>
    <Id>241754838</Id>
    <FullName>Shmuel Levi</FullName>
    <PhoneNumber>0599166043</PhoneNumber>
    <Email>volunteer2@gmail.com</Email>
    <TypeDistance>AerialDistance</TypeDistance>
    <Position>Volunteer</Position>
    <Active>true</Active>
    <Password>3%QLf@YRQTwt</Password>
    <Location>Jaffa Gate, Jerusalem, Israel</Location>
    <Latitude>31.7683</Latitude>
    <Longitude>35.2137</Longitude>
    <MaxDistance>13</MaxDistance>
  </Volunteer>
  <Volunteer>
    <Id>250080944</Id>
    <FullName>Yaakov Goldstein</FullName>
    <PhoneNumber>0524683756</PhoneNumber>
    <Email>volunteer3@gmail.com</Email>
    <TypeDistance>AerialDistance</TypeDistance>
    <Position>Volunteer</Position>
    <Active>true</Active>
    <Password>S3E&amp;apDDI18l</Password>
    <Location>Baha'i Gardens, Haifa, Israel</Location>
    <Latitude>32.814</Latitude>
    <Longitude>34.9896</Longitude>
    <MaxDistance>14</MaxDistance>
  </Volunteer>
  <Volunteer>
    <Id>398022844</Id>
    <FullName>Moshe Friedman</FullName>
    <PhoneNumber>0577813630</PhoneNumber>
    <Email>volunteer4@gmail.com</Email>
    <TypeDistance>AerialDistance</TypeDistance>
    <Position>Volunteer</Position>
    <Active>true</Active>
    <Password>jgG%hDA5JN^K</Password>
    <Location>Dead Sea, Israel</Location>
    <Latitude>31.559</Latitude>
    <Longitude>35.4732</Longitude>
    <MaxDistance>17</MaxDistance>
  </Volunteer>
  <Volunteer>
    <Id>382579027</Id>
    <FullName>Avraham Stein</FullName>
    <PhoneNumber>0577856965</PhoneNumber>
    <Email>volunteer5@gmail.com</Email>
    <TypeDistance>AerialDistance</TypeDistance>
    <Position>Volunteer</Position>
    <Active>true</Active>
    <Password>1Iaza74dEV$#</Password>
    <Location>Masada National Park, Israel</Location>
    <Latitude>31.3156</Latitude>
    <Longitude>35.3533</Longitude>
    <MaxDistance>17</MaxDistance>
  </Volunteer>
  <Volunteer>
    <Id>242742138</Id>
    <FullName>Daniel Green</FullName>
    <PhoneNumber>0532079266</PhoneNumber>
    <Email>volunteer6@gmail.com</Email>
    <TypeDistance>AerialDistance</TypeDistance>
    <Position>Volunteer</Position>
    <Active>true</Active>
    <Password>l%U**Y$@ZfJc</Password>
    <Location>Eilat Coral Beach, Eilat, Israel</Location>
    <Latitude>29.5015</Latitude>
    <Longitude>34.9166</Longitude>
    <MaxDistance>15</MaxDistance>
  </Volunteer>
  <Volunteer>
    <Id>288849569</Id>
    <FullName>David Weiss</FullName>
    <PhoneNumber>0520715927</PhoneNumber>
    <Email>volunteer7@gmail.com</Email>
    <TypeDistance>AerialDistance</TypeDistance>
    <Position>Volunteer</Position>
    <Active>true</Active>
    <Password>4Ko6vaE^7Yx#</Password>
    <Location>Yad Vashem, Jerusalem, Israel</Location>
    <Latitude>31.7744</Latitude>
    <Longitude>35.1758</Longitude>
    <MaxDistance>12</MaxDistance>
  </Volunteer>
  <Volunteer>
    <Id>237510497</Id>
    <FullName>Yonatan Rubin</FullName>
    <PhoneNumber>0586527822</PhoneNumber>
    <Email>volunteer8@gmail.com</Email>
    <TypeDistance>AerialDistance</TypeDistance>
    <Position>Volunteer</Position>
    <Active>true</Active>
    <Password>)kLGN%9fS8UP</Password>
    <Location>Carmel Market, Tel Aviv, Israel</Location>
    <Latitude>32.0681</Latitude>
    <Longitude>34.7705</Longitude>
    <MaxDistance>5</MaxDistance>
  </Volunteer>
  <Volunteer>
    <Id>387225086</Id>
    <FullName>Hanan Levy</FullName>
    <PhoneNumber>0519864774</PhoneNumber>
    <Email>volunteer9@gmail.com</Email>
    <TypeDistance>AerialDistance</TypeDistance>
    <Position>Volunteer</Position>
    <Active>true</Active>
    <Password>%J)EQ(6)z@pP</Password>
    <Location>Sea of Galilee, Tiberias, Israel</Location>
    <Latitude>32.7959</Latitude>
    <Longitude>35.5312</Longitude>
    <MaxDistance>14</MaxDistance>
  </Volunteer>
  <Volunteer>
    <Id>216719252</Id>
    <FullName>Eli Karp</FullName>
    <PhoneNumber>0580487281</PhoneNumber>
    <Email>volunteer10@gmail.com</Email>
    <TypeDistance>AerialDistance</TypeDistance>
    <Position>Volunteer</Position>
    <Active>true</Active>
    <Password>1jYjh!%LCk9L</Password>
    <Location>Ramon Crater, Mitzpe Ramon, Israel</Location>
    <Latitude>30.6092</Latitude>
    <Longitude>34.8015</Longitude>
    <MaxDistance>6</MaxDistance>
  </Volunteer>
  <Volunteer>
    <Id>209531506</Id>
    <FullName>Uzi Sharoni</FullName>
    <PhoneNumber>0546161419</PhoneNumber>
    <Email>volunteer11@gmail.com</Email>
    <TypeDistance>AerialDistance</TypeDistance>
    <Position>Volunteer</Position>
    <Active>true</Active>
    <Password>)p3HzN1H9WTp</Password>
    <Location>Western Wall, Jerusalem, Israel</Location>
    <Latitude>31.7767</Latitude>
    <Longitude>35.2345</Longitude>
    <MaxDistance>19</MaxDistance>
  </Volunteer>
  <Volunteer>
    <Id>261742910</Id>
    <FullName>Shimon Ben-David</FullName>
    <PhoneNumber>0519784704</PhoneNumber>
    <Email>volunteer12@gmail.com</Email>
    <TypeDistance>AerialDistance</TypeDistance>
    <Position>Volunteer</Position>
    <Active>true</Active>
    <Password>9M5RsD@$egP1</Password>
    <Location>Caesarea National Park, Israel</Location>
    <Latitude>32.4999</Latitude>
    <Longitude>34.8957</Longitude>
    <MaxDistance>11</MaxDistance>
  </Volunteer>
  <Volunteer>
    <Id>255556657</Id>
    <FullName>Matan Shalev</FullName>
    <PhoneNumber>0597563298</PhoneNumber>
    <Email>volunteer13@gmail.com</Email>
    <TypeDistance>AerialDistance</TypeDistance>
    <Position>Volunteer</Position>
    <Active>true</Active>
    <Password>t*T*L$BeQzxe</Password>
    <Location>Tel Aviv Port, Tel Aviv, Israel</Location>
    <Latitude>32.097</Latitude>
    <Longitude>34.7743</Longitude>
    <MaxDistance>6</MaxDistance>
  </Volunteer>
  <Volunteer>
    <Id>203240417</Id>
    <FullName>Asher Tzukrel</FullName>
    <PhoneNumber>0511736154</PhoneNumber>
    <Email>volunteer14@gmail.com</Email>
    <TypeDistance>AerialDistance</TypeDistance>
    <Position>Volunteer</Position>
    <Active>true</Active>
    <Password>NV(JVS(NBGni</Password>
    <Location>Timna Park, Eilat, Israel</Location>
    <Latitude>29.7878</Latitude>
    <Longitude>34.9491</Longitude>
    <MaxDistance>14</MaxDistance>
  </Volunteer>
  <Volunteer>
    <Id>248644979</Id>
    <FullName>Oren Regev</FullName>
    <PhoneNumber>0582208327</PhoneNumber>
    <Email>volunteer15@gmail.com</Email>
    <TypeDistance>AerialDistance</TypeDistance>
    <Position>Volunteer</Position>
    <Active>true</Active>
    <Password>X*KR%QQ0LRt(</Password>
    <Location>Banias Nature Reserve, Golan Heights, Israel</Location>
    <Latitude>33.2473</Latitude>
    <Longitude>35.6931</Longitude>
    <MaxDistance>5</MaxDistance>
  </Volunteer>
</ArrayOfVolunteer>