<?xml version="1.0" encoding="utf-8"?>
<ArrayOfVolunteer>
  <Volunteer>
    <Id>727115620</Id>
    <FullName>Yosef Cohen</FullName>
    <PhoneNumber>0532413596</PhoneNumber>
    <Email>volunteer1@gmail.com</Email>
    <DistanceType>DrivingDistance</DistanceType>
    <Position>admin</Position>
    <Active>true</Active>
    <Password>@ODmLi11uca2</Password>
    <Location>Rothschild Boulevard, Tel Aviv, Israel</Location>
    <Latitude>32.0655</Latitude>
    <Longitude>34.767028</Longitude>
    <MaxDistance>7</MaxDistance>
  </Volunteer>
  <Volunteer>
    <Id>900775958</Id>
    <FullName>Shmuel Levi</FullName>
    <PhoneNumber>0576067376</PhoneNumber>
    <Email>volunteer2@gmail.com</Email>
    <DistanceType>DrivingDistance</DistanceType>
    <Position>admin</Position>
    <Active>false</Active>
    <Password>cMPPACldaz0P</Password>
    <Location>Tel Aviv Port, Tel Aviv, Israel</Location>
    <Latitude>32.099791</Latitude>
    <Longitude>34.769077</Longitude>
    <MaxDistance>10</MaxDistance>
  </Volunteer>
  <Volunteer>
    <Id>100459316</Id>
    <FullName>Yaakov Goldstein</FullName>
    <PhoneNumber>0594187371</PhoneNumber>
    <Email>volunteer3@gmail.com</Email>
    <DistanceType>AerialDistance</DistanceType>
    <Position>volunteer</Position>
    <Active>true</Active>
    <Password>ScdaeomyEFtG</Password>
    <Location>Jaffa, Tel Aviv, Israel</Location>
    <Latitude>32.055823</Latitude>
    <Longitude>34.759151</Longitude>
    <MaxDistance>17</MaxDistance>
  </Volunteer>
  <Volunteer>
    <Id>185706906</Id>
    <FullName>Moshe Friedman</FullName>
    <PhoneNumber>0539646869</PhoneNumber>
    <Email>volunteer4@gmail.com</Email>
    <DistanceType>AerialDistance</DistanceType>
    <Position>volunteer</Position>
    <Active>true</Active>
    <Password>@(J8w&amp;6O#YvU</Password>
    <Location>Neve Tzedek, Tel Aviv, Israel</Location>
    <Latitude>32.065764</Latitude>
    <Longitude>34.770022</Longitude>
    <MaxDistance>18</MaxDistance>
  </Volunteer>
  <Volunteer>
    <Id>602637347</Id>
    <FullName>Avraham Stein</FullName>
    <PhoneNumber>0557428929</PhoneNumber>
    <Email>volunteer5@gmail.com</Email>
    <DistanceType>DrivingDistance</DistanceType>
    <Position>volunteer</Position>
    <Active>true</Active>
    <Password>EX^LsP#yq9g7</Password>
    <Location>Habima Theatre, Tel Aviv, Israel</Location>
    <Latitude>32.073743</Latitude>
    <Longitude>34.770498</Longitude>
    <MaxDistance>9</MaxDistance>
  </Volunteer>
  <Volunteer>
    <Id>541236304</Id>
    <FullName>Daniel Green</FullName>
    <PhoneNumber>0598198549</PhoneNumber>
    <Email>volunteer6@gmail.com</Email>
    <DistanceType>AerialDistance</DistanceType>
    <Position>volunteer</Position>
    <Active>true</Active>
    <Password>CC&amp;xUG*m^vMF</Password>
    <Location>Carmel Market, Tel Aviv, Israel</Location>
    <Latitude>32.065013</Latitude>
    <Longitude>34.76837</Longitude>
    <MaxDistance>16</MaxDistance>
  </Volunteer>
  <Volunteer>
    <Id>177398475</Id>
    <FullName>David Weiss</FullName>
    <PhoneNumber>0577464262</PhoneNumber>
    <Email>volunteer7@gmail.com</Email>
    <DistanceType>DrivingDistance</DistanceType>
    <Position>volunteer</Position>
    <Active>true</Active>
    <Password>hFpN^YXKlFC^</Password>
    <Location>Dizengoff Square, Tel Aviv, Israel</Location>
    <Latitude>32.078323</Latitude>
    <Longitude>34.77034</Longitude>
    <MaxDistance>9</MaxDistance>
  </Volunteer>
  <Volunteer>
    <Id>407870425</Id>
    <FullName>Yonatan Rubin</FullName>
    <PhoneNumber>0535753135</PhoneNumber>
    <Email>volunteer8@gmail.com</Email>
    <DistanceType>AerialDistance</DistanceType>
    <Position>volunteer</Position>
    <Active>false</Active>
    <Password>If3p*O0!%Kpa</Password>
    <Location>Yarkon Park, Tel Aviv, Israel</Location>
    <Latitude>32.087573</Latitude>
    <Longitude>34.781904</Longitude>
    <MaxDistance>19</MaxDistance>
  </Volunteer>
  <Volunteer>
    <Id>917478177</Id>
    <FullName>Hanan Levy</FullName>
    <PhoneNumber>0510796529</PhoneNumber>
    <Email>volunteer9@gmail.com</Email>
    <DistanceType>AerialDistance</DistanceType>
    <Position>volunteer</Position>
    <Active>false</Active>
    <Password>2UEOt34pVA$D</Password>
    <Location>Tel Aviv Museum of Art, Tel Aviv, Israel</Location>
    <Latitude>32.073418</Latitude>
    <Longitude>34.781046</Longitude>
    <MaxDistance>16</MaxDistance>
  </Volunteer>
  <Volunteer>
    <Id>395597897</Id>
    <FullName>Eli Karp</FullName>
    <PhoneNumber>0549533007</PhoneNumber>
    <Email>volunteer10@gmail.com</Email>
    <DistanceType>DrivingDistance</DistanceType>
    <Position>volunteer</Position>
    <Active>true</Active>
    <Password>aELi%!bXJ^Zw</Password>
    <Location>Florentin, Tel Aviv, Israel</Location>
    <Latitude>32.054186</Latitude>
    <Longitude>34.759738</Longitude>
    <MaxDistance>12</MaxDistance>
  </Volunteer>
  <Volunteer>
    <Id>429729607</Id>
    <FullName>Uzi Sharoni</FullName>
    <PhoneNumber>0513281485</PhoneNumber>
    <Email>volunteer11@gmail.com</Email>
    <DistanceType>DrivingDistance</DistanceType>
    <Position>volunteer</Position>
    <Active>false</Active>
    <Password>vx58a1gnid)Q</Password>
    <Location>Jaffa Port, Tel Aviv, Israel</Location>
    <Latitude>32.053704</Latitude>
    <Longitude>34.756671</Longitude>
    <MaxDistance>7</MaxDistance>
  </Volunteer>
  <Volunteer>
    <Id>348191904</Id>
    <FullName>Shimon Ben-David</FullName>
    <PhoneNumber>0560973202</PhoneNumber>
    <Email>volunteer12@gmail.com</Email>
    <DistanceType>DrivingDistance</DistanceType>
    <Position>volunteer</Position>
    <Active>false</Active>
    <Password>NhvXY(P2%*eR</Password>
    <Location>Rabin Square, Tel Aviv, Israel</Location>
    <Latitude>32.07857</Latitude>
    <Longitude>34.768721</Longitude>
    <MaxDistance>7</MaxDistance>
  </Volunteer>
  <Volunteer>
    <Id>508983874</Id>
    <FullName>Matan Shalev</FullName>
    <PhoneNumber>0554920742</PhoneNumber>
    <Email>volunteer13@gmail.com</Email>
    <DistanceType>DrivingDistance</DistanceType>
    <Position>volunteer</Position>
    <Active>false</Active>
    <Password>)s!vg@03KWva</Password>
    <Location>Levinsky Market, Tel Aviv, Israel</Location>
    <Latitude>32.061425</Latitude>
    <Longitude>34.766412</Longitude>
    <MaxDistance>11</MaxDistance>
  </Volunteer>
  <Volunteer>
    <Id>343648203</Id>
    <FullName>Asher Tzukrel</FullName>
    <PhoneNumber>0592055657</PhoneNumber>
    <Email>volunteer14@gmail.com</Email>
    <DistanceType>AerialDistance</DistanceType>
    <Position>volunteer</Position>
    <Active>true</Active>
    <Password>X$xa)GdakauB</Password>
    <Location>Gordon Beach, Tel Aviv, Israel</Location>
    <Latitude>32.071299</Latitude>
    <Longitude>34.767122</Longitude>
    <MaxDistance>19</MaxDistance>
  </Volunteer>
  <Volunteer>
    <Id>203794244</Id>
    <FullName>Oren Regev</FullName>
    <PhoneNumber>0568581005</PhoneNumber>
    <Email>volunteer15@gmail.com</Email>
    <DistanceType>AerialDistance</DistanceType>
    <Position>volunteer</Position>
    <Active>false</Active>
    <Password>iJ*tGelfqDB(</Password>
    <Location>Azrieli Center, Tel Aviv, Israel</Location>
    <Latitude>32.0737</Latitude>
    <Longitude>34.791202</Longitude>
    <MaxDistance>18</MaxDistance>
  </Volunteer>
</ArrayOfVolunteer>