<?xml version="1.0" encoding="utf-8"?>
<ArrayOfVolunteer>
  <Volunteer>Volunteer { Id = 334745971, FullName = Yosef Cohen, PhoneNumber = 0540381225, Email = volunteer1@gmail.com, Active = True, DistanceType = AerialDistance, Position = Manager, Password = 9b*J#N%XSlH1, Location = Rothschild Boulevard, Tel Aviv, Israel, Latitude = 32.0853, Longitude = 34.7818, MaxDistance = 9 }</Volunteer>
  <Volunteer>Volunteer { Id = 217038359, FullName = Shmuel Levi, PhoneNumber = 0540150630, Email = volunteer2@gmail.com, Active = True, DistanceType = AerialDistance, Position = Volunteer, Password = gf4WsJr6WhBX, Location = Jaffa Gate, Jerusalem, Israel, Latitude = 31.7683, Longitude = 35.2137, MaxDistance = 14 }</Volunteer>
  <Volunteer>Volunteer { Id = 322522196, FullName = Yaakov Goldstein, PhoneNumber = 0524773952, Email = volunteer3@gmail.com, Active = True, DistanceType = AerialDistance, Position = Volunteer, Password = tmOamEL8WF^m, Location = Baha'i Gardens, Haifa, Israel, Latitude = 32.814, Longitude = 34.9896, MaxDistance = 5 }</Volunteer>
  <Volunteer>Volunteer { Id = 300103585, FullName = Moshe Friedman, PhoneNumber = 0513957094, Email = volunteer4@gmail.com, Active = True, DistanceType = AerialDistance, Position = Volunteer, Password = b0qkZP3ogFTR, Location = Dead Sea, Israel, Latitude = 31.559, Longitude = 35.4732, MaxDistance = 9 }</Volunteer>
  <Volunteer>Volunteer { Id = 385490145, FullName = Avraham Stein, PhoneNumber = 0559028078, Email = volunteer5@gmail.com, Active = True, DistanceType = AerialDistance, Position = Volunteer, Password = 0^UxADwzRd@q, Location = Masada National Park, Israel, Latitude = 31.3156, Longitude = 35.3533, MaxDistance = 8 }</Volunteer>
  <Volunteer>Volunteer { Id = 372455606, FullName = Daniel Green, PhoneNumber = 0516222101, Email = volunteer6@gmail.com, Active = True, DistanceType = AerialDistance, Position = Volunteer, Password = I%3$QgUQnfU), Location = Eilat Coral Beach, Eilat, Israel, Latitude = 29.5015, Longitude = 34.9166, MaxDistance = 12 }</Volunteer>
  <Volunteer>Volunteer { Id = 374767876, FullName = David Weiss, PhoneNumber = 0566996025, Email = volunteer7@gmail.com, Active = True, DistanceType = AerialDistance, Position = Volunteer, Password = Z1Ege*fFfrVX, Location = Yad Vashem, Jerusalem, Israel, Latitude = 31.7744, Longitude = 35.1758, MaxDistance = 9 }</Volunteer>
  <Volunteer>Volunteer { Id = 232562662, FullName = Yonatan Rubin, PhoneNumber = 0590394496, Email = volunteer8@gmail.com, Active = True, DistanceType = AerialDistance, Position = Volunteer, Password = lqC$x6&amp;m($1G, Location = Carmel Market, Tel Aviv, Israel, Latitude = 32.0681, Longitude = 34.7705, MaxDistance = 10 }</Volunteer>
  <Volunteer>Volunteer { Id = 335327793, FullName = Hanan Levy, PhoneNumber = 0582436442, Email = volunteer9@gmail.com, Active = True, DistanceType = AerialDistance, Position = Volunteer, Password = Hm)7DT2y#aYa, Location = Sea of Galilee, Tiberias, Israel, Latitude = 32.7959, Longitude = 35.5312, MaxDistance = 13 }</Volunteer>
  <Volunteer>Volunteer { Id = 222410545, FullName = Eli Karp, PhoneNumber = 0558983459, Email = volunteer10@gmail.com, Active = True, DistanceType = AerialDistance, Position = Volunteer, Password = A)#SyG8%O!*c, Location = Ramon Crater, Mitzpe Ramon, Israel, Latitude = 30.6092, Longitude = 34.8015, MaxDistance = 5 }</Volunteer>
  <Volunteer>Volunteer { Id = 264245458, FullName = Uzi Sharoni, PhoneNumber = 0517516722, Email = volunteer11@gmail.com, Active = True, DistanceType = AerialDistance, Position = Volunteer, Password = 2S%uH@wN)JcB, Location = Western Wall, Jerusalem, Israel, Latitude = 31.7767, Longitude = 35.2345, MaxDistance = 5 }</Volunteer>
  <Volunteer>Volunteer { Id = 286487719, FullName = Shimon Ben-David, PhoneNumber = 0526231374, Email = volunteer12@gmail.com, Active = True, DistanceType = AerialDistance, Position = Volunteer, Password = M#X^ZbtfW^Z#, Location = Caesarea National Park, Israel, Latitude = 32.4999, Longitude = 34.8957, MaxDistance = 8 }</Volunteer>
  <Volunteer>Volunteer { Id = 313856869, FullName = Matan Shalev, PhoneNumber = 0528598699, Email = volunteer13@gmail.com, Active = True, DistanceType = AerialDistance, Position = Volunteer, Password = ULV(aX)i252J, Location = Tel Aviv Port, Tel Aviv, Israel, Latitude = 32.097, Longitude = 34.7743, MaxDistance = 7 }</Volunteer>
  <Volunteer>Volunteer { Id = 380424947, FullName = Asher Tzukrel, PhoneNumber = 0592570973, Email = volunteer14@gmail.com, Active = True, DistanceType = AerialDistance, Position = Volunteer, Password = PwKjEoa^^7Pw, Location = Timna Park, Eilat, Israel, Latitude = 29.7878, Longitude = 34.9491, MaxDistance = 16 }</Volunteer>
  <Volunteer>Volunteer { Id = 393091521, FullName = Oren Regev, PhoneNumber = 0541875786, Email = volunteer15@gmail.com, Active = True, DistanceType = AerialDistance, Position = Volunteer, Password = CDUPZFq5d@)x, Location = Banias Nature Reserve, Golan Heights, Israel, Latitude = 33.2473, Longitude = 35.6931, MaxDistance = 13 }</Volunteer>
</ArrayOfVolunteer>